{"type":"FeatureCollection","features":[{"type":"Feature","properties":{"Name":"Strand Bookstore"},"geometry":{"type":"Point","coordinates":[-73.99090558290482,40.73326292219057]}},{"type":"Feature","properties":{"Name":"Angelika Film Center"},"geometry":{"type":"Point","coordinates":[-73.99698078632355,40.7258989157838]}},{"type":"Feature","properties":{"Name":"Housing Works Bookstore and Cafe"},"geometry":{"type":"Point","coordinates":[-73.99654626846313,40.72456749449252]}},{"type":"Feature","properties":{"Name":"Rough Trade"},"geometry":{"type":"Point","coordinates":[-73.96043837070465,40.7211402325881]}},{"type":"Feature","properties":{"Name":"Interference Archive"},"geometry":{"type":"Point","coordinates":[-73.98591935634613,40.67011090412189]}}]}